{"Root": [
{"startTimestamp":"2023/12/01 08:37","endTimestamp":"2023/12/01 08:46","Title":"MParc La Praille","Address":"Av. Vibert 32, 1227 Carouge, Suisse","Latitude":"46.1847993","Longitude":"6.1339501","Duration":"0:08","Moved":"5151779.052"},
{"startTimestamp":"2023/12/01 08:52","endTimestamp":"2023/12/01 09:46","Title":"MIZZICA DE GIUSEPPE CUSUMANO","Address":"Rue du Pont-Neuf 5, 1227 Carouge, Suisse","Latitude":"46.187174","Longitude":"6.141161","Duration":"0:54","Moved":"616.1134942"},
{"startTimestamp":"2023/12/01 09:56","endTimestamp":"2023/12/01 10:28","Title":"MParc La Praille","Address":"Av. Vibert 32, 1227 Carouge, Suisse","Latitude":"46.1847993","Longitude":"6.1339501","Duration":"0:31","Moved":"616.1134942"},
{"startTimestamp":"2023/12/01 10:47","endTimestamp":"2023/12/01 13:22","Title":" ","Address":"Chemin des Muguets 8A, CH-1234 Veyrier, Schweiz","Latitude":"46.1706056","Longitude":"6.1614986","Duration":"2:34","Moved":"2648.381017"},
{"startTimestamp":"2023/12/01 15:56","endTimestamp":"2023/12/01 16:34","Title":"Emmaüs Valais","Address":"Rte de Riddes 51, 1950 Sion, Suisse","Latitude":"46.223101","Longitude":"7.371808","Duration":"0:38","Moved":"93602.66043"},
{"startTimestamp":"2023/12/01 17:47","endTimestamp":"2023/12/02 06:21","Title":"Montana Gare","Address":"3963 Crans-Montana, Suisse","Latitude":"46.312905","Longitude":"7.48922","Duration":"12:33","Moved":"13474.74931"},
{"startTimestamp":"2023/12/02 06:21","endTimestamp":"2023/12/02 10:14","Title":" ","Address":"Rte du Clovelli 22, 3963 Crans-Montana, Suisse","Latitude":"46.3126221","Longitude":"7.4870007","Duration":"3:53","Moved":"173.8114482"},
{"startTimestamp":"2023/12/02 10:54","endTimestamp":"2023/12/02 11:02","Title":"Job Transit Services","Address":"Rue de Bellerive, 3960 Sierre, Suisse","Latitude":"46.2807918","Longitude":"7.5347646","Duration":"0:08","Moved":"5105.086458"},
{"startTimestamp":"2023/12/02 11:28","endTimestamp":"2023/12/02 11:48","Title":"Coop Supermarché Crans-Montana","Address":"Rte du Clovelli 6, 3963 Crans-Montana, Suisse","Latitude":"46.3119137","Longitude":"7.4836275","Duration":"0:20","Moved":"5243.239301"},
{"startTimestamp":"2023/12/02 11:56","endTimestamp":"2023/12/03 10:21","Title":"PPE Immeuble les orzières","Address":"Rte de Marigny 6, 3963 Crans-Montana, Suisse","Latitude":"46.3119861","Longitude":"7.488063","Duration":"22:25","Moved":"341.7472418"},
{"startTimestamp":"2023/12/03 10:51","endTimestamp":"2023/12/03 12:08","Title":"One Crans-Montana SA","Address":"Rue du Grand-Place 14 3963, 2 Crans-Montana, Suisse","Latitude":"46.3064229","Longitude":"7.4675295","Duration":"1:16","Moved":"1698.29661"},
{"startTimestamp":"2023/12/03 12:33","endTimestamp":"2023/12/04 11:30","Title":"PPE Immeuble les orzières","Address":"Rte de Marigny 6, 3963 Crans-Montana, Suisse","Latitude":"46.3119861","Longitude":"7.488063","Duration":"22:57","Moved":"1698.29661"},
{"startTimestamp":"2023/12/04 13:54","endTimestamp":"2023/12/05 08:30","Title":" ","Address":"Chemin des Muguets 8A, CH-1234 Veyrier, Schweiz","Latitude":"46.1706056","Longitude":"6.1614986","Duration":"18:36","Moved":"103511.0688"},
{"startTimestamp":"2023/12/05 08:54","endTimestamp":"2023/12/05 10:07","Title":"Zen Garden - Serge Romanato","Address":"Rue François-Meunier 9, 1227 Carouge, Suisse","Latitude":"46.1894121","Longitude":"6.1339576","Duration":"1:13","Moved":"2981.922543"},
{"startTimestamp":"2023/12/05 10:56","endTimestamp":"2023/12/05 10:57","Title":"Place Favre","Address":"1225 Chêne-Bourg, Suisse","Latitude":"46.195364","Longitude":"6.192477","Duration":"0:01","Moved":"4565.55753"},
{"startTimestamp":"2023/12/05 10:57","endTimestamp":"2023/12/05 11:59","Title":"Cabinet Dentaire Sauvin","Address":"Rue de Chêne-Bougeries 38, 1224 Chêne-Bougeries, Suisse","Latitude":"46.195756","Longitude":"6.191276","Duration":"1:01","Moved":"102.4345145"},
{"startTimestamp":"2023/12/05 12:21","endTimestamp":"2023/12/06 08:43","Title":" ","Address":"Chemin des Muguets 8A, CH-1234 Veyrier, Schweiz","Latitude":"46.1706056","Longitude":"6.1614986","Duration":"20:21","Moved":"3619.512577"},
{"startTimestamp":"2023/12/06 09:22","endTimestamp":"2023/12/06 10:22","Title":" ","Address":"Rue des Caroubiers 12, 1227 Carouge, Suisse","Latitude":"46.1876685","Longitude":"6.1339874","Duration":"0:59","Moved":"2847.717216"},
{"startTimestamp":"2023/12/06 10:29","endTimestamp":"2023/12/06 11:01","Title":"MIZZICA DE GIUSEPPE CUSUMANO","Address":"Rue du Pont-Neuf 5, 1227 Carouge, Suisse","Latitude":"46.187174","Longitude":"6.141161","Duration":"0:31","Moved":"556.5325434"},
{"startTimestamp":"2023/12/06 11:33","endTimestamp":"2023/12/07 09:14","Title":" ","Address":"Chemin des Muguets 8A, CH-1234 Veyrier, Schweiz","Latitude":"46.1706056","Longitude":"6.1614986","Duration":"21:41","Moved":"2420.257644"},
{"startTimestamp":"2023/12/07 09:51","endTimestamp":"2023/12/07 10:46","Title":"MIZZICA DE GIUSEPPE CUSUMANO","Address":"Rue du Pont-Neuf 5, 1227 Carouge, Suisse","Latitude":"46.187174","Longitude":"6.141161","Duration":"0:55","Moved":"2420.257644"},
{"startTimestamp":"2023/12/07 11:18","endTimestamp":"2023/12/07 17:15","Title":" ","Address":"Chemin des Muguets 8A, CH-1234 Veyrier, Schweiz","Latitude":"46.1706056","Longitude":"6.1614986","Duration":"5:56","Moved":"2420.257644"},
{"startTimestamp":"2023/12/07 17:53","endTimestamp":"2023/12/07 19:17","Title":"Mies, Gare","Address":"1295 Mies, Suisse","Latitude":"46.299359","Longitude":"6.169218","Duration":"1:23","Moved":"14324.0822"},
{"startTimestamp":"2023/12/07 22:40","endTimestamp":"2023/12/08 16:44","Title":" ","Address":"Chemin des Muguets 8A, CH-1234 Veyrier, Schweiz","Latitude":"46.1706056","Longitude":"6.1614986","Duration":"18:04","Moved":"14324.0822"},
{"startTimestamp":"2023/12/08 18:03","endTimestamp":"2023/12/08 22:45","Title":" ","Address":"Chem. des Mélèzes 4, 1197 Prangins, Suisse","Latitude":"46.394115","Longitude":"6.2447277","Duration":"4:41","Moved":"25659.2552"},
{"startTimestamp":"2023/12/08 23:23","endTimestamp":"2023/12/09 08:16","Title":" ","Address":"Chemin des Muguets 8A, CH-1234 Veyrier, Schweiz","Latitude":"46.1706056","Longitude":"6.1614986","Duration":"8:52","Moved":"25659.2552"},
{"startTimestamp":"2023/12/09 08:40","endTimestamp":"2023/12/09 12:58","Title":"Université de Genève","Address":"Bd du Pont-d'Arve 40, 1205 Genève, Suisse","Latitude":"46.1952371","Longitude":"6.1405296","Duration":"4:17","Moved":"3180.756884"},
{"startTimestamp":"2023/12/09 13:14","endTimestamp":"2023/12/09 13:26","Title":"Centre commercial de Carouge","Address":"Av. Cardinal-Mermillod 36, 1227 Carouge, Suisse","Latitude":"46.185657","Longitude":"6.1437833","Duration":"0:12","Moved":"1094.098353"},
{"startTimestamp":"2023/12/09 13:39","endTimestamp":"2023/12/10 09:21","Title":" ","Address":"Chemin des Muguets 8A, CH-1234 Veyrier, Schweiz","Latitude":"46.1706056","Longitude":"6.1614986","Duration":"19:42","Moved":"2161.048317"},
{"startTimestamp":"2023/12/10 09:44","endTimestamp":"2023/12/10 11:39","Title":"Fondation Aigues-Vertes Village","Address":"Rte de Chèvres 29, 1233 Bernex, Suisse","Latitude":"46.198523","Longitude":"6.0750107","Duration":"1:55","Moved":"7363.170146"},
{"startTimestamp":"2023/12/10 11:44","endTimestamp":"2023/12/10 16:37","Title":" ","Address":"Chemin des Muguets 8A, CH-1234 Veyrier, Schweiz","Latitude":"46.1706056","Longitude":"6.1614986","Duration":"4:53","Moved":"7363.170146"}
]}

